{
  "type": "FeatureCollection",
  "features": [
    {
      "type": "Feature",
      "geometry": {
        "type": "Point",
        "coordinates": [
          172.5472531,
          -43.5097504
        ]
      },
      "properties": {
        "name": "Avonhead Park Cemetery",
        "Address": "Hawthornden Road (1st left off Avonhead Road after Withells Road)",
        "More info": "http://www.ccc.govt.nz/services/cemeteries/operational-cemeteries/avonhead-park-cemetery/",
        "Status": "Open"
      }
    },
    {
      "type": "Feature",
      "geometry": {
        "type": "Point",
        "coordinates": [
          172.642443,
          -43.453202
        ]
      },
      "properties": {
        "name": "Belfast Cemetery",
        "Address": "Corner Guthries and Belfast Roads",
        "More info": "http://www.ccc.govt.nz/services/cemeteries/operational-cemeteries/belfast-cemetery/",
        "Status": "Open"
      }
    },
    {
      "type": "Feature",
      "geometry": {
        "type": "Point",
        "coordinates": [
          172.685507,
          -43.540704
        ]
      },
      "properties": {
        "name": "Bromley Cemetery",
        "Address": "Entrance off Linwood Avenue (cnr Keighleys and Linwood Avenue)",
        "More info": "http://www.ccc.govt.nz/services/cemeteries/operational-cemeteries/bromley-cemetery/",
        "Status": "Open"
      }
    },
    {
      "type": "Feature",
      "geometry": {
        "type": "Point",
        "coordinates": [
          172.681319,
          -43.529788
        ]
      },
      "properties": {
        "name": "Linwood Cemetery",
        "Address": "Entrance off Butterfield Avenue (next door to Bromley Park on Buckleys Road)",
        "More info": "http://www.ccc.govt.nz/services/cemeteries/operational-cemeteries/linwood-cemetery/",
        "Status": "Open"
      }
    },
    {
      "type": "Feature",
      "geometry": {
        "type": "Point",
        "coordinates": [
          172.8059782,
          -43.7588219
        ]
      },
      "properties": {
        "name": "Little River Cemetery",
        "Address": "St Andrew Church, Little River Cemetery Rd",
        "More info": "http://www.ccc.govt.nz/services/cemeteries/operational-cemeteries/little-river-cemetery/",
        "Status": "Open"
      }
    },
    {
      "type": "Feature",
      "geometry": {
        "type": "Point",
        "coordinates": [
          172.722487,
          -43.598582
        ]
      },
      "properties": {
        "name": "Lyttelton Anglican Cemetery",
        "Address": "79 Canterbury Street, Lyttelton",
        "More info": "http://www.ccc.govt.nz/services/cemeteries/operational-cemeteries/lyttelton-anglican-cemetery/",
        "Status": "Open"
      }
    },
    {
      "type": "Feature",
      "geometry": {
        "type": "Point",
        "coordinates": [
          172.725541,
          -43.60198
        ]
      },
      "properties": {
        "name": "Lyttelton Catholic and Public Cemetery",
        "Address": "Reserve Terrace, Lyttelton",
        "More info": "http://www.ccc.govt.nz/services/cemeteries/operational-cemeteries/lyttelton-catholic-and-public-cemetery/",
        "Status": "Open"
      }
    },
    {
      "type": "Feature",
      "geometry": {
        "type": "Point",
        "coordinates": [
          172.68754,
          -43.529969
        ]
      },
      "properties": {
        "name": "Memorial Park Cemetery",
        "Address": "Corner Cypress Street & Ruru Road",
        "More info": "http://www.ccc.govt.nz/services/cemeteries/operational-cemeteries/memorial-park-cemetery/",
        "Status": "Open"
      }
    },
    {
      "type": "Feature",
      "geometry": {
        "type": "Point",
        "coordinates": [
          172.690341,
          -43.53587
        ]
      },
      "properties": {
        "name": "Ruru Lawn Cemetery",
        "Address": "Off Ruru Road and Raymond Road - The cemetery is adjacent to an industrial area and Cypress Garden Reserve. ",
        "More info": "http://www.ccc.govt.nz/services/cemeteries/operational-cemeteries/ruru-lawn-cemetery/",
        "Status": "Open"
      }
    },
    {
      "type": "Feature",
      "geometry": {
        "type": "Point",
        "coordinates": [
          172.6248224,
          -43.5576292
        ]
      },
      "properties": {
        "name": "Sydenham Cemetery",
        "Address": "End of Simeon Street - turn off Roker Street",
        "More info": "http://www.ccc.govt.nz/services/cemeteries/operational-cemeteries/sydenham-cemetery/",
        "Status": "Open"
      }
    },
    {
      "type": "Feature",
      "geometry": {
        "type": "Point",
        "coordinates": [
          172.578397,
          -43.500124
        ]
      },
      "properties": {
        "name": "Waimairi Cemetery",
        "Address": "Grahams Road (between Cranbrook Avenue and Gregan Street - backs onto Kendall Avenue School)",
        "More info": "http://www.ccc.govt.nz/services/cemeteries/operational-cemeteries/waimairi-cemetery/",
        "Status": "Open"
      }
    },
    {
      "type": "Feature",
      "geometry": {
        "type": "Point",
        "coordinates": [
          172.476654,
          -43.511008
        ]
      },
      "properties": {
        "name": "Yaldhurst Cemetery",
        "Address": "Buchanans Road, Yaldhurst",
        "More info": "http://www.ccc.govt.nz/services/cemeteries/operational-cemeteries/yaldhurst-cemetery/",
        "Status": "Open"
      }
    },
    {
      "type": "Feature",
      "geometry": {
        "type": "Point",
        "coordinates": [
          172.956178,
          -43.81312
        ]
      },
      "properties": {
        "name": "Akaroa Anglican Cemetery",
        "Address": "135 & 145 Beach Road, Akaroa",
        "More info": "http://www.ccc.govt.nz/services/cemeteries/operational-cemeteries/banks-peninsula-cemeteries/akaroa-anglican-cemetery/",
        "Status": "Open"
      }
    },
    {
      "type": "Feature",
      "geometry": {
        "type": "Point",
        "coordinates": [
          172.9589606,
          -43.8145713
        ]
      },
      "properties": {
        "name": "Akaroa Catholic Cemetery",
        "Address": "1 Akaroa Cemetery Road, Akaora",
        "More info": "http://www.ccc.govt.nz/services/cemeteries/operational-cemeteries/banks-peninsula-cemeteries/akaroa-catholic-cemetery/",
        "Status": "Open"
      }
    },
    {
      "type": "Feature",
      "geometry": {
        "type": "Point",
        "coordinates": [
          172.9589606,
          -43.8145713
        ]
      },
      "properties": {
        "name": "Akaroa Dissenters Cemetery",
        "Address": "3 Akaroa Cemetery Road, Akaora",
        "More info": "http://www.ccc.govt.nz/services/cemeteries/operational-cemeteries/banks-peninsula-cemeteries/akaroa-dissenters-cemetery/",
        "Status": "Open"
      }
    },
    {
      "type": "Feature",
      "geometry": {
        "type": "Point",
        "coordinates": [
          172.74121,
          -43.623701
        ]
      },
      "properties": {
        "name": "Diamond Harbour Memorial Cemetery",
        "Address": "20 Waipapa Avenue, Diamond Harbour",
        "More info": "http://www.ccc.govt.nz/services/cemeteries/operational-cemeteries/banks-peninsula-cemeteries/diamond-harbour-memorial-cemetery/",
        "Status": "Open"
      }
    },
    {
      "type": "Feature",
      "geometry": {
        "type": "Point",
        "coordinates": [
          172.946815,
          -43.759694
        ]
      },
      "properties": {
        "name": "Duvauchelle Cemetery",
        "Address": "6267 Christchurch Akaroa Road, Duvauchelle",
        "More info": "http://www.ccc.govt.nz/services/cemeteries/operational-cemeteries/banks-peninsula-cemeteries/duvauchelle-cemetery/",
        "Status": "Open"
      }
    },
    {
      "type": "Feature",
      "geometry": {
        "type": "Point",
        "coordinates": [
          172.688309,
          -43.75081
        ]
      },
      "properties": {
        "name": "Kaituna Valley Public Cemetery",
        "Address": "399 Kaituna Valley Road, Kaituna",
        "More info": "http://www.ccc.govt.nz/services/cemeteries/operational-cemeteries/banks-peninsula-cemeteries/kaituna-valley-public-cemetery/",
        "Status": "Open"
      }
    },
    {
      "type": "Feature",
      "geometry": {
        "type": "Point",
        "coordinates": [
          173.089444,
          -43.749775
        ]
      },
      "properties": {
        "name": "Le Bons Bay Cemetery",
        "Address": "27 Le Bons Bay Cemetery Road, Le Bons Bay",
        "More info": "http://www.ccc.govt.nz/services/cemeteries/operational-cemeteries/banks-peninsula-cemeteries/le-bons-bay-cemetery/",
        "Status": "Open"
      }
    },
    {
      "type": "Feature",
      "geometry": {
        "type": "Point",
        "coordinates": [
          173.047726,
          -43.705834
        ]
      },
      "properties": {
        "name": "Okains Bay Cemetery",
        "Address": "11 Chorlton Road, Okains Bay",
        "More info": "http://www.ccc.govt.nz/services/cemeteries/operational-cemeteries/banks-peninsula-cemeteries/okains-bay-cemetery/",
        "Status": "Open"
      }
    },
    {
      "type": "Feature",
      "geometry": {
        "type": "Point",
        "coordinates": [
          172.904871,
          -43.703447
        ]
      },
      "properties": {
        "name": "Pigeon Bay Cemetery",
        "Address": "100 Wilsons Road, Pigeon Bay",
        "More info": "http://www.ccc.govt.nz/services/cemeteries/operational-cemeteries/banks-peninsula-cemeteries/pigeon-bay-cemetery/",
        "Status": "Open"
      }
    },
    {
      "type": "Feature",
      "geometry": {
        "type": "Point",
        "coordinates": [
          172.904536,
          -43.808798
        ]
      },
      "properties": {
        "name": "Wainui Cemetery",
        "Address": "43 Cemetery Road, Wainui",
        "More info": "http://www.ccc.govt.nz/services/cemeteries/operational-cemeteries/banks-peninsula-cemeteries/wainui-cemetery/",
        "Status": "Open"
      }
    },
    {
      "type": "Feature",
      "geometry": {
        "type": "Point",
        "coordinates": [
          172.567281,
          -43.562282
        ]
      },
      "properties": {
        "name": "Mount Magdala Cemetery of the Good Shepherd Sisters",
        "Address": "54 Aidanfield Drive",
        "More info": "http://www.ccc.govt.nz/culture-and-community/heritage/heritage-in-the-city/cemeteries/mount-magdala-cemetery-of-the-good-shepherd-sisters/",
        "Status": "Closed"
      }
    },
    {
      "type": "Feature",
      "properties": {
        "name": "Addington Cemetery",
        "Address": "Selwyn Street (between Disraeli Street and Fairfield Avenue)",
        "More info": "http://www.ccc.govt.nz/culture-and-community/heritage/heritage-in-the-city/cemeteries/addington-cemetery/",
        "Status": "Closed"
      },
      "geometry": {
        "type": "Point",
        "coordinates": [
          172.62477278709412,
          -43.54350117035557
        ]
      }
    },
    {
      "type": "Feature",
      "properties": {
        "name": "Barbadoes Street Cemetery",
        "Address": "Barbadoes Street (between Bealey Avenue and Kilmore Street).",
        "More info": "http://www.ccc.govt.nz/culture-and-community/heritage/heritage-in-the-city/cemeteries/barbadoes-street-cemetery/",
        "Status": "Closed"
      },
      "geometry": {
        "type": "Point",
        "coordinates": [
          172.6459836959839,
          -43.52304468186388
        ]
      }
    },
    {
      "type": "Feature",
      "properties": {
        "name": "Rutherford (Woolston) Cemetery",
        "Address": "End of Rutherford Street (off Ferry Road towards Garlands Road), Woolston.",
        "More info": "http://www.ccc.govt.nz/culture-and-community/heritage/heritage-in-the-city/cemeteries/rutherford-woolston-cemetery/",
        "Status": "Closed"
      },
      "geometry": {
        "type": "Point",
        "coordinates": [
          172.68200039863586,
          -43.5558805858282
        ]
      }
    },
    {
      "type": "Feature",
      "properties": {
        "name": "Akaroa French Cemetery",
        "Address": "The cemetery is located on a flat terrace in the L'Aube Hill Reserve.",
        "More info": "http://www.ccc.govt.nz/culture-and-community/heritage/heritage-in-the-city/cemeteries/akaroa-french-cemetery/",
        "Status": "Closed"
      },
      "geometry": {
        "type": "Point",
        "coordinates": [
          172.97040224075317,
          -43.803732419315715
        ]
      }
    }
  ]
}