{
  "type": "FeatureCollection",
  "features": [
    {
      "type": "Feature",
      "geometry": {
        "type": "Point",
        "coordinates": [
          172.565371,
          -43.54489
        ]
      },
      "properties": {
        "name": "A Waste of Time",
        "site": "EcoDrop and EcoSort Materials Recovery Facility",
        "category": "City Water and Waste",
        "url": "https://ccc.govt.nz/a-waste-of-time/",
        "Full name": "A Waste of Time - Hangaruatia",
        "Cost": "Free"
      }
    },
    {
      "type": "Feature",
      "geometry": {
        "type": "Point",
        "coordinates": [
          172.592751,
          -43.538459
        ]
      },
      "properties": {
        "name": "A Waste of Time",
        "site": "EcoShop",
        "category": "City Water and Waste",
        "url": "https://ccc.govt.nz/a-waste-of-time/",
        "Full name": "A Waste of Time - Hangaruatia",
        "Cost": "Free"
      }
    },
    {
      "type": "Feature",
      "geometry": {
        "type": "Point",
        "coordinates": [
          172.701381,
          -43.524919
        ]
      },
      "properties": {
        "name": "All Flushed Out",
        "site": "Christchurch Wastewater Treatment Plant",
        "category": "City Water and Waste",
        "url": "https://ccc.govt.nz/all-flushed-out/",
        "Full name": "All Flushed Out - Heketua, heke ki whea",
        "Cost": "Free"
      }
    },
    {
      "type": "Feature",
      "geometry": {
        "type": "Point",
        "coordinates": [
          172.706351,
          -43.5381
        ]
      },
      "properties": {
        "name": "Casting Magic with Worms",
        "site": "EcoDepot/EcoDrop Metro Place",
        "category": "City Water and Waste",
        "url": "https://ccc.govt.nz/casting-magic-with-worms/",
        "Full name": "Casting Magic with Worms - Noke, noke, neke, neke, nuku, nuku, nā!",
        "Cost": "Free"
      }
    },
    {
      "type": "Feature",
      "geometry": {
        "type": "Point",
        "coordinates": [
          172.627102,
          -43.532538
        ]
      },
      "properties": {
        "name": "Casting Magic with Worms",
        "site": "Curators House Christchurch Botanic Gardens",
        "category": "City Water and Waste",
        "url": "https://ccc.govt.nz/casting-magic-with-worms/",
        "Full name": "Casting Magic with Worms - Noke, noke, neke, neke, nuku, nuku, nā!",
        "Cost": "Free"
      },
      "id": 4
    },
    {
      "type": "Feature",
      "geometry": {
        "type": "Point",
        "coordinates": [
          172.726633,
          -43.494956
        ]
      },
      "properties": {
        "name": "Coastal Management",
        "site": "North New Brighton Beach",
        "category": "Beach and Shore Habitats",
        "url": "https://ccc.govt.nz/coastal-management/",
        "Full name": "Coastal Management - Taku tai, takutai",
        "Cost": "Free"
      }
    },
    {
      "type": "Feature",
      "geometry": {
        "type": "Point",
        "coordinates": [
          172.731815,
          -43.508499
        ]
      },
      "properties": {
        "name": "Coastal Management",
        "site": "New Brighton Beach",
        "category": "Beach and Shore Habitats",
        "url": "https://ccc.govt.nz/coastal-management/",
        "Full name": "Coastal Management - Taku tai, takutai",
        "Cost": "Free"
      }
    },
    {
      "type": "Feature",
      "geometry": {
        "type": "Point",
        "coordinates": [
          172.62007,
          -43.529597
        ]
      },
      "properties": {
        "name": "Creative and Native",
        "site": "Christchurch Botanic Gardens",
        "category": "Biodiversity",
        "url": "https://ccc.govt.nz/creative-and-native/",
        "Full name": "Creative and Native - He rerehua, he taketake",
        "Cost": "Free"
      }
    },
    {
      "type": "Feature",
      "geometry": {
        "type": "Point",
        "coordinates": [
          172.706081,
          -43.538348
        ]
      },
      "properties": {
        "name": "Fertilising for the Future",
        "site": "EcoDepot/EcoDrop Metro Place",
        "category": "City Water and Waste",
        "url": "https://ccc.govt.nz/fertilising-for-the-future/",
        "Full name": "Fertilising for the Future - Ka whakatō te wairākau mō āpōpō",
        "Cost": "Free"
      }
    },
    {
      "type": "Feature",
      "geometry": {
        "type": "Point",
        "coordinates": [
          172.682444,
          -43.468194
        ]
      },
      "properties": {
        "name": "Forest Explorer",
        "site": "Bottle Lake Forest Park",
        "category": "Biodiversity",
        "url": "https://ccc.govt.nz/forest-survivor/",
        "Full name": "Forest Survivor - He uri a Tāne",
        "Cost": "Free"
      }
    },
    {
      "type": "Feature",
      "geometry": {
        "type": "Point",
        "coordinates": [
          172.705366,
          -43.430271
        ]
      },
      "properties": {
        "name": "Forest Explorer",
        "site": "Spencer Park",
        "category": "Biodiversity",
        "url": "https://ccc.govt.nz/forest-survivor/",
        "Full name": "Forest Survivor - He uri a Tāne",
        "Cost": "Free"
      }
    },
    {
      "type": "Feature",
      "geometry": {
        "type": "Point",
        "coordinates": [
          172.603219,
          -43.452929
        ]
      },
      "properties": {
        "name": "Freshwater Frolicking",
        "site": "The Groynes",
        "category": "Biodiversity",
        "url": "https://ccc.govt.nz/freshwater-frolicking/",
        "Full name": "Freshwater Frolicking - Te whawhewhawhe ki rō waimāori",
        "Cost": "Free"
      }
    },
    {
      "type": "Feature",
      "geometry": {
        "type": "Point",
        "coordinates": [
          172.60915,
          -43.44836
        ]
      },
      "properties": {
        "name": "Junior Park Explorers",
        "site": "The Groynes",
        "category": "Biodiversity",
        "url": "https://ccc.govt.nz/junior-park-explorers/",
        "Full name": "Junior Park Explorers - Ngā Kairangahau Paaka",
        "Cost": "Free"
      }
    },
    {
      "type": "Feature",
      "geometry": {
        "type": "Point",
        "coordinates": [
          172.620524,
          -43.528625
        ]
      },
      "properties": {
        "name": "Junior Park Explorers",
        "site": "Christchurch Botanic Gardens",
        "category": "Biodiversity",
        "url": "https://ccc.govt.nz/junior-park-explorers/",
        "Full name": "Junior Park Explorers - Ngā Kairangahau Paaka",
        "Cost": "Free"
      }
    },
    {
      "type": "Feature",
      "geometry": {
        "type": "Point",
        "coordinates": [
          172.706701,
          -43.431999
        ]
      },
      "properties": {
        "name": "Junior Park Explorers",
        "site": "Spencer Park",
        "category": "Biodiversity",
        "url": "https://ccc.govt.nz/junior-park-explorers/",
        "Full name": "Junior Park Explorers - Ngā Kairangahau Paaka",
        "Cost": "Free"
      }
    },
    {
      "type": "Feature",
      "geometry": {
        "type": "Point",
        "coordinates": [
          172.575396,
          -43.599204
        ]
      },
      "properties": {
        "name": "Junior Park Explorers",
        "site": "Halswell Quarry Park",
        "category": "Biodiversity",
        "url": "https://ccc.govt.nz/junior-park-explorers/",
        "Full name": "Junior Park Explorers - Ngā Kairangahau Paaka",
        "Cost": "Free"
      }
    },
    {
      "type": "Feature",
      "geometry": {
        "type": "Point",
        "coordinates": [
          172.960424,
          -43.812971
        ]
      },
      "properties": {
        "name": "Junior Park Explorers",
        "site": "Akaroa",
        "category": "Biodiversity",
        "url": "https://ccc.govt.nz/junior-park-explorers/",
        "Full name": "Junior Park Explorers - Ngā Kairangahau Paaka",
        "Cost": "Free"
      }
    },
    {
      "type": "Feature",
      "geometry": {
        "type": "Point",
        "coordinates": [
          172.698367,
          -43.484697
        ]
      },
      "properties": {
        "name": "Junior Park Explorers",
        "site": "Travis Wetland Reserve",
        "category": "Biodiversity",
        "url": "https://ccc.govt.nz/junior-park-explorers/",
        "Full name": "Junior Park Explorers - Ngā Kairangahau Paaka",
        "Cost": "Free"
      }
    },
    {
      "type": "Feature",
      "geometry": {
        "type": "Point",
        "coordinates": [
          172.64304,
          -43.590406
        ]
      },
      "properties": {
        "name": "Junior Park Explorers",
        "site": "Victoria Park",
        "category": "Biodiversity",
        "url": "https://ccc.govt.nz/junior-park-explorers/",
        "Full name": "Junior Park Explorers - Ngā Kairangahau Paaka",
        "Cost": "Free"
      }
    },
    {
      "type": "Feature",
      "geometry": {
        "type": "Point",
        "coordinates": [
          172.643668,
          -43.589511
        ]
      },
      "properties": {
        "name": "Native Nurturing",
        "site": "Victoria Park",
        "category": "Biodiversity",
        "url": "https://ccc.govt.nz/native-nurturing/",
        "Full name": "Native Nurturing - Manaaki Whenua",
        "Cost": "Free"
      }
    },
    {
      "type": "Feature",
      "geometry": {
        "type": "Point",
        "coordinates": [
          172.776731,
          -43.5833
        ]
      },
      "properties": {
        "name": "On the Rocks",
        "site": "Taylors Mistake Beach",
        "category": "Biodiversity",
        "url": "https://ccc.govt.nz/ontherocks/",
        "Full name": "On the Rocks - Te toka tai moana",
        "Cost": "Free"
      }
    },
    {
      "type": "Feature",
      "geometry": {
        "type": "Point",
        "coordinates": [
          172.76006,
          -43.566022
        ]
      },
      "properties": {
        "name": "On the Rocks",
        "site": "Sumner Beach",
        "category": "Biodiversity",
        "url": "https://ccc.govt.nz/ontherocks/",
        "Full name": "On the Rocks - Te toka tai moana",
        "Cost": "Free"
      }
    },
    {
      "type": "Feature",
      "geometry": {
        "type": "Point",
        "coordinates": [
          172.631656,
          -43.531695
        ]
      },
      "properties": {
        "name": "Our City",
        "site": "Christchurch City Council Civic Building (Te Hononga)",
        "category": "Governance",
        "url": "https://ccc.govt.nz/ourcity/",
        "Full name": "Our City, Ōtautahi",
        "Cost": "Free"
      }
    },
    {
      "type": "Feature",
      "geometry": {
        "type": "Point",
        "coordinates": [
          172.619527,
          -43.530305
        ]
      },
      "properties": {
        "name": "Park Detectives",
        "site": "Christchurch Botanic Gardens",
        "category": "Biodiversity",
        "url": "https://ccc.govt.nz/park-detectives-titeketiwhi-paaka/",
        "Full name": "Park Detectives - Titeketiwhi Paaka",
        "Cost": "Free"
      }
    },
    {
      "type": "Feature",
      "geometry": {
        "type": "Point",
        "coordinates": [
          172.579751,
          -43.600521
        ]
      },
      "properties": {
        "name": "Rocky Road of Discovery",
        "site": "Halswell Quarry Park",
        "category": "Geology",
        "url": "https://ccc.govt.nz/rocky-road-of-discovery/",
        "Full name": "Rocky Road of Discovery - Te ara werowero ki Ō māramatanga",
        "Cost": "Free"
      }
    },
    {
      "type": "Feature",
      "geometry": {
        "type": "Point",
        "coordinates": [
          172.713885,
          -43.432668
        ]
      },
      "properties": {
        "name": "Saving the Sand Dunes",
        "site": "Spencer Park Beach",
        "category": "Beach and Shore Habitats",
        "url": "https://ccc.govt.nz/saving-the-sand-dunes/",
        "Full name": "Saving the Sand Dunes - Kia ora ai a tāhuahua",
        "Cost": "Free"
      }
    },
    {
      "type": "Feature",
      "geometry": {
        "type": "Point",
        "coordinates": [
          172.724405,
          -43.486746
        ]
      },
      "properties": {
        "name": "Saving the Sand Dunes",
        "site": "Waimairi Beach",
        "category": "Beach and Shore Habitats",
        "url": "https://ccc.govt.nz/saving-the-sand-dunes/",
        "Full name": "Saving the Sand Dunes - Kia ora ai a tāhuahua",
        "Cost": "Free"
      }
    },
    {
      "type": "Feature",
      "geometry": {
        "type": "Point",
        "coordinates": [
          172.727573,
          -43.496111
        ]
      },
      "properties": {
        "name": "Saving the Sand Dunes",
        "site": "North Brighton Beach",
        "category": "Beach and Shore Habitats",
        "url": "https://ccc.govt.nz/saving-the-sand-dunes/",
        "Full name": "Saving the Sand Dunes - Kia ora ai a tāhuahua",
        "Cost": "Free"
      }
    },
    {
      "type": "Feature",
      "geometry": {
        "type": "Point",
        "coordinates": [
          173.05986,
          -43.692793
        ]
      },
      "properties": {
        "name": "Saving the Sand Dunes",
        "site": "Okains Bay",
        "category": "Beach and Shore Habitats",
        "url": "https://ccc.govt.nz/saving-the-sand-dunes/",
        "Full name": "Saving the Sand Dunes - Kia ora ai a tāhuahua",
        "Cost": "Free"
      }
    },
    {
      "type": "Feature",
      "geometry": {
        "type": "Point",
        "coordinates": [
          173.097252,
          -43.742404
        ]
      },
      "properties": {
        "name": "Saving the Sand Dunes",
        "site": "Le Bons Bay",
        "category": "Beach and Shore Habitats",
        "url": "https://ccc.govt.nz/saving-the-sand-dunes/",
        "Full name": "Saving the Sand Dunes - Kia ora ai a tāhuahua",
        "Cost": "Free"
      }
    },
    {
      "type": "Feature",
      "geometry": {
        "type": "Point",
        "coordinates": [
          172.730467,
          -43.505197
        ]
      },
      "properties": {
        "name": "Saving the Sand Dunes",
        "site": "New Brighton Beach",
        "category": "Beach and Shore Habitats",
        "url": "https://ccc.govt.nz/saving-the-sand-dunes/",
        "Full name": "Saving the Sand Dunes - Kia ora ai a tāhuahua",
        "Cost": "Free"
      }
    },
    {
      "type": "Feature",
      "geometry": {
        "type": "Point",
        "coordinates": [
          172.737857,
          -43.522831
        ]
      },
      "properties": {
        "name": "Saving the Sand Dunes",
        "site": "South Brighton Beach",
        "category": "Beach and Shore Habitats",
        "url": "https://ccc.govt.nz/saving-the-sand-dunes/",
        "Full name": "Saving the Sand Dunes - Kia ora ai a tāhuahua",
        "Cost": "Free"
      }
    },
    {
      "type": "Feature",
      "geometry": {
        "type": "Point",
        "coordinates": [
          172.75756,
          -43.565917
        ]
      },
      "properties": {
        "name": "Saving the Sand Dunes",
        "site": "Sumner Beach",
        "category": "Beach and Shore Habitats",
        "url": "https://ccc.govt.nz/saving-the-sand-dunes/",
        "Full name": "Saving the Sand Dunes - Kia ora ai a tāhuahua",
        "Cost": "Free"
      }
    },
    {
      "type": "Feature",
      "geometry": {
        "type": "Point",
        "coordinates": [
          172.713795,
          -43.431666
        ]
      },
      "properties": {
        "name": "Searching the Shoreline",
        "site": "Spencer Park Beach",
        "category": "Beach and Shore Habitats",
        "url": "https://ccc.govt.nz/searching-the-shoreline/",
        "Full name": "Searching the Shoreline - Te ara rau o Tangaroa",
        "Cost": "Free"
      }
    },
    {
      "type": "Feature",
      "geometry": {
        "type": "Point",
        "coordinates": [
          172.72399,
          -43.485336
        ]
      },
      "properties": {
        "name": "Searching the Shoreline",
        "site": "Waimairi Beach",
        "category": "Beach and Shore Habitats",
        "url": "https://ccc.govt.nz/searching-the-shoreline/",
        "Full name": "Searching the Shoreline - Te ara rau o Tangaroa",
        "Cost": "Free"
      }
    },
    {
      "type": "Feature",
      "geometry": {
        "type": "Point",
        "coordinates": [
          172.726706,
          -43.493473
        ]
      },
      "properties": {
        "name": "Searching the Shoreline",
        "site": "North New Brighton Beach",
        "category": "Beach and Shore Habitats",
        "url": "https://ccc.govt.nz/searching-the-shoreline/",
        "Full name": "Searching the Shoreline - Te ara rau o Tangaroa",
        "Cost": "Free"
      }
    },
    {
      "type": "Feature",
      "geometry": {
        "type": "Point",
        "coordinates": [
          173.062382,
          -43.694246
        ]
      },
      "properties": {
        "name": "Searching the Shoreline",
        "site": "Okains Bay",
        "category": "Beach and Shore Habitats",
        "url": "https://ccc.govt.nz/searching-the-shoreline/",
        "Full name": "Searching the Shoreline - Te ara rau o Tangaroa",
        "Cost": "Free"
      }
    },
    {
      "type": "Feature",
      "geometry": {
        "type": "Point",
        "coordinates": [
          172.756892,
          -43.56575
        ]
      },
      "properties": {
        "name": "Searching the Shoreline",
        "site": "Sumner Beach",
        "category": "Beach and Shore Habitats",
        "url": "https://ccc.govt.nz/searching-the-shoreline/",
        "Full name": "Searching the Shoreline - Te ara rau o Tangaroa",
        "Cost": "Free"
      }
    },
    {
      "type": "Feature",
      "geometry": {
        "type": "Point",
        "coordinates": [
          172.731368,
          -43.507327
        ]
      },
      "properties": {
        "name": "Searching the Shoreline",
        "site": "New Brighton Beach",
        "category": "Beach and Shore Habitats",
        "url": "https://ccc.govt.nz/searching-the-shoreline/",
        "Full name": "Searching the Shoreline - Te ara rau o Tangaroa",
        "Cost": "Free"
      }
    },
    {
      "type": "Feature",
      "geometry": {
        "type": "Point",
        "coordinates": [
          172.737385,
          -43.521529
        ]
      },
      "properties": {
        "name": "Searching the Shoreline",
        "site": "South Brighton Beach",
        "category": "Beach and Shore Habitats",
        "url": "https://ccc.govt.nz/searching-the-shoreline/",
        "Full name": "Searching the Shoreline - Te ara rau o Tangaroa",
        "Cost": "Free"
      }
    },
    {
      "type": "Feature",
      "geometry": {
        "type": "Point",
        "coordinates": [
          173.096214,
          -43.741437
        ]
      },
      "properties": {
        "name": "Searching the Shoreline",
        "site": "Le Bons Bay",
        "category": "Beach and Shore Habitats",
        "url": "https://ccc.govt.nz/searching-the-shoreline/",
        "Full name": "Searching the Shoreline - Te ara rau o Tangaroa",
        "Cost": "Free"
      }
    },
    {
      "type": "Feature",
      "geometry": {
        "type": "Point",
        "coordinates": [
          172.708141,
          -43.537426
        ]
      },
      "properties": {
        "name": "Watch your Waste",
        "site": "Metro Place Organic Processing Plant and EcoDrop",
        "category": "City Water and Waste",
        "url": "https://ccc.govt.nz/watch-your-waste/",
        "Full name": "Watch your Waste - Taihoa koe i o para",
        "Cost": "Free"
      }
    },
    {
      "type": "Feature",
      "geometry": {
        "type": "Point",
        "coordinates": [
          172.637161,
          -43.561638
        ]
      },
      "properties": {
        "name": "Water for Life",
        "site": "Main water pumping station",
        "category": "City Water and Waste",
        "url": "https://ccc.govt.nz/water-for-life/",
        "Full name": "Water for Life - Te wai ora o Tāne",
        "Cost": "Free"
      }
    },
    {
      "type": "Feature",
      "geometry": {
        "type": "Point",
        "coordinates": [
          172.697936,
          -43.48516
        ]
      },
      "properties": {
        "name": "Wetlands, Waders and Water Boatmen",
        "site": "Travis Wetland Reserve",
        "category": "Biodiversity",
        "url": "https://ccc.govt.nz/wetlands-waders-and-water-boatmen/",
        "Full name": "Wetlands, Waders and Water Boatmen",
        "Cost": "Free"
      }
    },
    {
      "type": "Feature",
      "properties": {
        "name": "Park Detectives",
        "site": "Halswell Quarry Park",
        "category": "Biodiversity",
        "url": "https://ccc.govt.nz/the-council/learning-resources/learning-through-action/list-of-programmes/park-detectives-titeketiwhi-paaka/",
        "Cost": "Free",
        "Full name": "Park Detectives - Titeketiwhi Paaka"
      },
      "geometry": {
        "type": "Point",
        "coordinates": [
          172.5780487060547,
          -43.600353948856224
        ]
      }
    },
    {
      "type": "Feature",
      "properties": {
        "Full name": "Creative and Native - He rerehua, he taketake",
        "Cost": "Free",
        "url": "https://ccc.govt.nz/the-council/learning-resources/learning-through-action/list-of-programmes/creative-and-native/",
        "category": "Biodiversity",
        "name": "Creative and Native",
        "site": "Halswell Quarry Park"
      },
      "geometry": {
        "type": "Point",
        "coordinates": [
          172.57877826690674,
          -43.60043164356079
        ]
      }
    },
    {
      "type": "Feature",
      "properties": {
        "name": "Park Detectives",
        "site": "Travis Wetland Reserve",
        "category": "Biodiversity",
        "url": "https://ccc.govt.nz/the-council/learning-resources/learning-through-action/list-of-programmes/park-detectives-titeketiwhi-paaka/",
        "Full name": "Park Detectives - Titeketiwhi Paaka",
        "Cost": "Free"
      },
      "geometry": {
        "type": "Point",
        "coordinates": [
          172.69777715206146,
          -43.48442290865699
        ]
      }
    },
    {
      "type": "Feature",
      "properties": {
        "name": "Park Detectives",
        "site": "The Groynes",
        "category": "Biodiversity",
        "url": "https://ccc.govt.nz/the-council/learning-resources/learning-through-action/list-of-programmes/park-detectives-titeketiwhi-paaka/",
        "Full name": "Park Detectives - Titeketiwhi Paaka",
        "Cost": "Free"
      },
      "geometry": {
        "type": "Point",
        "coordinates": [
          172.60963439941406,
          -43.447879531435056
        ]
      }
    },
    {
      "type": "Feature",
      "properties": {
        "name": "Junior Park Explorers",
        "site": "Mona Vale",
        "category": "Biodiversity",
        "url": "https://ccc.govt.nz/junior-park-explorers/",
        "Full name": "Junior Park Explorers - Ngā Kairangahau Paaka",
        "Cost": "Free"
      },
      "geometry": {
        "type": "Point",
        "coordinates": [
          172.6078963279724,
          -43.523114696888484
        ]
      }
    },
    {
      "type": "Feature",
      "properties": {
        "site": "Mona Vale",
        "category": "Biodiversity",
        "name": "Park Detectives",
        "url": "https://ccc.govt.nz/the-council/learning-resources/learning-through-action/list-of-programmes/park-detectives-titeketiwhi-paaka/",
        "Full name": "Park Detectives - Titeketiwhi Paaka",
        "Cost": "Free"
      },
      "geometry": {
        "type": "Point",
        "coordinates": [
          172.6092267036438,
          -43.523877077452376
        ]
      }
    },
    {
      "type": "Feature",
      "properties": {
        "name": "Native Nurturing",
        "site": "Halswell Quarry Park",
        "category": "Biodiversity",
        "url": "https://ccc.govt.nz/native-nurturing/",
        "Full name": "Native Nurturing - Manaaki Whenua",
        "Cost": "Free"
      },
      "geometry": {
        "coordinates": [
          172.57869206518586,
          -43.601011097908554
        ],
        "type": "Point"
      }
    },
    {
      "type": "Feature",
      "properties": {
        "name": "Junior Park Explorers",
        "site": "Climate Action Campus",
        "category": "Biodiversity",
        "url": "https://ccc.govt.nz/junior-park-explorers/",
        "Full name": "Junior Park Explorers - Ngā Kairangahau Paaka",
        "Cost": "Free"
      },
      "geometry": {
        "coordinates": [
          172.66197176074718,
          -43.52396447955467
        ],
        "type": "Point"
      }
    },
    {
      "type": "Feature",
      "properties": {
        "name": "Park Detectives",
        "site": "Climate Action Campus",
        "category": "Biodiversity",
        "url": "https://ccc.govt.nz/the-council/learning-resources/learning-through-action/list-of-programmes/park-detectives-titeketiwhi-paaka/",
        "Full name": "Park Detectives - Titeketiwhi Paaka",
        "Cost": "Free"
      },
      "geometry": {
        "coordinates": [
          172.66241304291566,
          -43.52394656206881
        ],
        "type": "Point"
      }
    },
    {
      "type": "Feature",
      "properties": {
        "name": "Future Proof: Climate Change'",
        "site": "Botanic Gardens",
        "category": "Climate Change",
        "url": "https://ccc.govt.nz/the-council/learning-resources/learning-through-action/list-of-programmes/climate-change-kaitiakitanga/",
        "Full name": "Future Proof: Climate Change - Kaitiakitanga",
        "Cost": "Free"
      },
      "geometry": {
        "coordinates": [
          172.62691058167428,
          -43.53184131313041
        ],
        "type": "Point"
      }
    }
  ]
}
