{
  "type": "FeatureCollection",
  "features": [
    {
      "type": "Feature",
      "properties": {
        "Type": "Lockable cycle stand",
        "Capacity": 5,
        "Address": "662 Colombo Street",
        "Provider": "Locky Dock"
      },
      "geometry": {
        "type": "Point",
        "coordinates": [
          172.63684776793517,
          -43.53397211948465
        ]
      }
    },
    {
      "type": "Feature",
      "properties": {
        "Type": "Lockable cycle stand",
        "Capacity": 10,
        "Address": "110 Cashel Street",
        "Provider": "Locky Dock"
      },
      "geometry": {
        "type": "Point",
        "coordinates": [
          172.6348766684532,
          -43.53329712787323
        ]
      }
    },
    {
      "type": "Feature",
      "properties": {
        "Type": "Lockable cycle stand",
        "Capacity": 10,
        "Address": "70 Kilmore Street",
        "Provider": "Locky Dock"
      },
      "geometry": {
        "type": "Point",
        "coordinates": [
          172.63484072245708,
          -43.5266249840468
        ]
      }
    },
    {
      "type": "Feature",
      "properties": {
        "Address": "192 Cashel Street",
        "Capacity": 10,
        "Type": "Lockable cycle stand",
        "Provider": "Locky Dock"
      },
      "geometry": {
        "type": "Point",
        "coordinates": [
          172.63994604349136,
          -43.53323684733948
        ]
      }
    },
    {
      "type": "Feature",
      "properties": {
        "Type": "Lockable cycle stand",
        "Capacity": 10,
        "Address": "228 Tuam Street ",
        "Provider": "Locky Dock"
      },
      "geometry": {
        "type": "Point",
        "coordinates": [
          172.6409176966067,
          -43.535480034283886
        ]
      }
    },
    {
      "type": "Feature",
      "properties": {
        "Address": "301 Montreal Street",
        "Capacity": 5,
        "Type": "Lockable cycle stand",
        "Provider": "Locky Dock"
      },
      "geometry": {
        "type": "Point",
        "coordinates": [
          172.6304617524147,
          -43.531719119206
        ]
      }
    },
    {
      "type": "Feature",
      "properties": {
        "marker-color": "#7e7e7e",
        "marker-size": "medium",
        "marker-symbol": "",
        "Type": "Lockable cycle stand",
        "Capacity": 10,
        "Address": "359 Durham Street North",
        "Provider": "Locky Dock"
      },
      "geometry": {
        "type": "Point",
        "coordinates": [
          172.633398771286,
          -43.52511398052396
        ]
      }
    },
    {
      "type": "Feature",
      "properties": {
        "Address": "132 Lichfield Street",
        "Capacity": 10,
        "Type": "Lockable cycle stand",
        "Provider": "Locky Dock"
      },
      "geometry": {
        "type": "Point",
        "coordinates": [
          172.6406031847,
          -43.534312165230794
        ]
      }
    },
    {
      "type": "Feature",
      "properties": {
        "Type": "Lockable cycle stand",
        "Capacity": 10,
        "Address": "163 High Street",
        "Provider": "Locky Dock"
      },
      "geometry": {
        "type": "Point",
        "coordinates": [
          172.6419781040178,
          -43.535575203303196
        ]
      }
    },
    {
      "type": "Feature",
      "properties": {
        "Type": "Lockable cycle stand",
        "Capacity": 5,
        "Address": "Northlands Mall",
        "Provider": "Locky Dock"
      },
      "geometry": {
        "type": "Point",
        "coordinates": [
          172.6080210506916,
          -43.494139042242395
        ]
      }
    },
    {
      "type": "Feature",
      "properties": {
        "Type": "Lockable cycle stand",
        "Capacity": 10,
        "Address": "Karoro Lane, Sydenham",
        "Provider": "Locky Dock",
        "marker-color": ""
      },
      "geometry": {
        "type": "Point",
        "coordinates": [
          172.645999,
          -43.547662
        ]
      }
    },
    {
      "type": "Feature",
      "properties": {
        "Type": "Lockable cycle stand",
        "Capacity": 10,
        "Address": "18 High Street, Rangiora",
        "Provider": "Locky Dock"
      },
      "geometry": {
        "type": "Point",
        "coordinates": [
          172.598347,
          -43.302903
        ]
      }
    },
    {
      "type": "Feature",
      "properties": {
        "Type": "Lockable cycle stand",
        "Capacity": 8,
        "Address": "203 Cashel Street",
        "Provider": "Locky Dock"
      },
      "geometry": {
        "type": "Point",
        "coordinates": [
          172.64154464006424,
          -43.53302489272625
        ]
      }
    }
  ]
}